[
  {"name": "Cairo", "country": "Egypt", "lat": 30.0444, "lng": 31.2357, "population": 20900604, "timezone": "Africa/Cairo"},
  {"name": "Lagos", "country": "Nigeria", "lat": 6.5244, "lng": 3.3792, "population": 14800000, "timezone": "Africa/Lagos"},
  {"name": "Kinshasa", "country": "DR Congo", "lat": -4.4419, "lng": 15.2663, "population": 14750000, "timezone": "Africa/Kinshasa"},
  {"name": "Johannesburg", "country": "South Africa", "lat": -26.2041, "lng": 28.0473, "population": 9574418, "timezone": "Africa/Johannesburg"},
  {"name": "Khartoum", "country": "Sudan", "lat": 15.5007, "lng": 32.5599, "population": 6395986, "timezone": "Africa/Khartoum"},
  {"name": "Dar es Salaam", "country": "Tanzania", "lat": -6.7924, "lng": 39.2083, "population": 6698000, "timezone": "Africa/Dar_es_Salaam"},
  {"name": "Alexandria", "country": "Egypt", "lat": 31.2001, "lng": 29.9187, "population": 5160000, "timezone": "Africa/Cairo"},
  {"name": "Abidjan", "country": "Ivory Coast", "lat": 5.3599, "lng": -4.0083, "population": 4980000, "timezone": "Africa/Abidjan"},
  {"name": "Casablanca", "country": "Morocco", "lat": 33.5731, "lng": -7.5898, "population": 3460000, "timezone": "Africa/Casablanca"},
  {"name": "Nairobi", "country": "Kenya", "lat": -1.2921, "lng": 36.8219, "population": 4397073, "timezone": "Africa/Nairobi"},
  {"name": "Addis Ababa", "country": "Ethiopia", "lat": 9.03, "lng": 38.74, "population": 3041002, "timezone": "Africa/Addis_Ababa"},
  {"name": "Accra", "country": "Ghana", "lat": 5.6037, "lng": -0.187, "population": 2291352, "timezone": "Africa/Accra"},
  {"name": "Algiers", "country": "Algeria", "lat": 36.7538, "lng": 3.0588, "population": 3415811, "timezone": "Africa/Algiers"},
  {"name": "Dakar", "country": "Senegal", "lat": 14.7167, "lng": -17.4677, "population": 1146053, "timezone": "Africa/Dakar"},
  {"name": "Kampala", "country": "Uganda", "lat": 0.3476, "lng": 32.5825, "population": 1507080, "timezone": "Africa/Kampala"},
  {"name": "Mogadishu", "country": "Somalia", "lat": 2.0469, "lng": 45.3182, "population": 2120000, "timezone": "Africa/Mogadishu"},
  {"name": "Tripoli", "country": "Libya", "lat": 32.8872, "lng": 13.1913, "population": 1150989, "timezone": "Africa/Tripoli"},
  {"name": "Tunis", "country": "Tunisia", "lat": 36.8065, "lng": 10.1815, "population": 1056247, "timezone": "Africa/Tunis"},
  {"name": "Rabat", "country": "Morocco", "lat": 34.0209, "lng": -6.8416, "population": 577827, "timezone": "Africa/Casablanca"},
  {"name": "Giza", "country": "Egypt", "lat": 30.0131, "lng": 31.2089, "population": 4239988, "timezone": "Africa/Cairo"},
  {"name": "Baghdad", "country": "Iraq", "lat": 33.3152, "lng": 44.3661, "population": 7180889, "timezone": "Asia/Baghdad"},
  {"name": "Riyadh", "country": "Saudi Arabia", "lat": 24.7136, "lng": 46.6753, "population": 7762000, "timezone": "Asia/Riyadh"},
  {"name": "Jeddah", "country": "Saudi Arabia", "lat": 21.4858, "lng": 39.1925, "population": 3976000, "timezone": "Asia/Riyadh"},
  {"name": "Dubai", "country": "UAE", "lat": 25.2048, "lng": 55.2708, "population": 3331400, "timezone": "Asia/Dubai"},
  {"name": "Tehran", "country": "Iran", "lat": 35.6892, "lng": 51.389, "population": 9010000, "timezone": "Asia/Tehran"},
  {"name": "Istanbul", "country": "Turkey", "lat": 41.0082, "lng": 28.9784, "population": 15190336, "timezone": "Europe/Istanbul"},
  {"name": "Ankara", "country": "Turkey", "lat": 39.9334, "lng": 32.8597, "population": 5503985, "timezone": "Europe/Istanbul"},
  {"name": "Amman", "country": "Jordan", "lat": 31.9539, "lng": 35.9106, "population": 4007526, "timezone": "Asia/Amman"},
  {"name": "Jerusalem", "country": "Israel", "lat": 31.7683, "lng": 35.2137, "population": 936425, "timezone": "Asia/Jerusalem"},
  {"name": "Beirut", "country": "Lebanon", "lat": 33.8938, "lng": 35.5018, "population": 2181000, "timezone": "Asia/Beirut"},
  {"name": "Abuja", "country": "Nigeria", "lat": 9.0579, "lng": 7.4951, "population": 1235880, "timezone": "Africa/Lagos"},
  {"name": "Kano", "country": "Nigeria", "lat": 12.0022, "lng": 8.5919, "population": 3626068, "timezone": "Africa/Lagos"},
  {"name": "Ibadan", "country": "Nigeria", "lat": 7.3775, "lng": 3.947, "population": 3565108, "timezone": "Africa/Lagos"},
  {"name": "Marrakesh", "country": "Morocco", "lat": 31.6295, "lng": -7.9811, "population": 928850, "timezone": "Africa/Casablanca"},
  {"name": "Fes", "country": "Morocco", "lat": 34.0181, "lng": -5.0078, "population": 1112072, "timezone": "Africa/Casablanca"},
  {"name": "Tangier", "country": "Morocco", "lat": 35.7595, "lng": -5.8339, "population": 947952, "timezone": "Africa/Casablanca"},
  {"name": "Sfax", "country": "Tunisia", "lat": 34.7406, "lng": 10.7603, "population": 330440, "timezone": "Africa/Tunis"},
  {"name": "Sousse", "country": "Tunisia", "lat": 35.8256, "lng": 10.6084, "population": 271428, "timezone": "Africa/Tunis"},
  {"name": "Benghazi", "country": "Libya", "lat": 32.119, "lng": 20.086, "population": 631555, "timezone": "Africa/Tripoli"},
  {"name": "Oran", "country": "Algeria", "lat": 35.6971, "lng": -0.6308, "population": 803329, "timezone": "Africa/Algiers"},
  {"name": "Mecca", "country": "Saudi Arabia", "lat": 21.3891, "lng": 39.8579, "population": 1675368, "timezone": "Asia/Riyadh"},
  {"name": "Medina", "country": "Saudi Arabia", "lat": 24.5247, "lng": 39.5692, "population": 1300000, "timezone": "Asia/Riyadh"},
  {"name": "Sana'a", "country": "Yemen", "lat": 15.3694, "lng": 44.191, "population": 1937451, "timezone": "Asia/Aden"},
  {"name": "Muscat", "country": "Oman", "lat": 23.588, "lng": 58.3829, "population": 1460000, "timezone": "Asia/Muscat"},
  {"name": "Doha", "country": "Qatar", "lat": 25.2854, "lng": 51.531, "population": 956457, "timezone": "Asia/Qatar"},
  {"name": "Bamako", "country": "Mali", "lat": 12.6392, "lng": -8.0029, "population": 2000000, "timezone": "Africa/Bamako"},
  {"name": "Niamey", "country": "Niger", "lat": 13.5128, "lng": 2.1126, "population": 1200000, "timezone": "Africa/Niamey"},
  {"name": "Ouagadougou", "country": "Burkina Faso", "lat": 12.3714, "lng": -1.5197, "population": 2200000, "timezone": "Africa/Ouagadougou"},
  {"name": "Lusaka", "country": "Zambia", "lat": -15.3875, "lng": 28.3228, "population": 1960000, "timezone": "Africa/Lusaka"},
  {"name": "Harare", "country": "Zimbabwe", "lat": -17.8252, "lng": 31.0335, "population": 1542813, "timezone": "Africa/Harare"},
  {"name": "Maputo", "country": "Mozambique", "lat": -25.9692, "lng": 32.5732, "population": 1191613, "timezone": "Africa/Maputo"},
  {"name": "Antananarivo", "country": "Madagascar", "lat": -18.8792, "lng": 47.5079, "population": 1391433, "timezone": "Indian/Antananarivo"},
  {"name": "Nouakchott", "country": "Mauritania", "lat": 18.0735, "lng": -15.9582, "population": 958399, "timezone": "Africa/Nouakchott"},
  {"name": "Conakry", "country": "Guinea", "lat": 9.6412, "lng": -13.5784, "population": 1667864, "timezone": "Africa/Conakry"},
  {"name": "Freetown", "country": "Sierra Leone", "lat": 8.4657, "lng": -13.2317, "population": 1143000, "timezone": "Africa/Freetown"},
  {"name": "Monrovia", "country": "Liberia", "lat": 6.3156, "lng": -10.8074, "population": 1060000, "timezone": "Africa/Monrovia"},
  {"name": "Asmara", "country": "Eritrea", "lat": 15.3229, "lng": 38.9251, "population": 963000, "timezone": "Africa/Asmara"},
  {"name": "Juba", "country": "South Sudan", "lat": 4.8594, "lng": 31.5713, "population": 525953, "timezone": "Africa/Juba"},
  {"name": "Gaborone", "country": "Botswana", "lat": -24.6282, "lng": 25.9231, "population": 231626, "timezone": "Africa/Gaborone"},
  {"name": "Port Harcourt", "country": "Nigeria", "lat": 4.8156, "lng": 7.0498, "population": 1865000, "timezone": "Africa/Lagos"},
  {"name": "Benin City", "country": "Nigeria", "lat": 6.3382, "lng": 5.6258, "population": 1490000, "timezone": "Africa/Lagos"},
  {"name": "Onitsha", "country": "Nigeria", "lat": 6.1498, "lng": 6.7857, "population": 1100000, "timezone": "Africa/Lagos"},
  {"name": "Kumasi", "country": "Ghana", "lat": 6.6666, "lng": -1.6163, "population": 2069350, "timezone": "Africa/Accra"},
  {"name": "Tamale", "country": "Ghana", "lat": 9.4071, "lng": -0.8539, "population": 360579, "timezone": "Africa/Accra"},
  {"name": "Sekondi-Takoradi", "country": "Ghana", "lat": 4.9437, "lng": -1.7603, "population": 445205, "timezone": "Africa/Accra"},
  {"name": "Mombasa", "country": "Kenya", "lat": -4.0435, "lng": 39.6682, "population": 1208333, "timezone": "Africa/Nairobi"},
  {"name": "Kisumu", "country": "Kenya", "lat": -0.0917, "lng": 34.768, "population": 409928, "timezone": "Africa/Nairobi"},
  {"name": "Eldoret", "country": "Kenya", "lat": 0.5143, "lng": 35.2698, "population": 475716, "timezone": "Africa/Nairobi"},
  {"name": "Cape Town", "country": "South Africa", "lat": -33.9249, "lng": 18.4241, "population": 433688, "timezone": "Africa/Johannesburg"},
  {"name": "Durban", "country": "South Africa", "lat": -29.8587, "lng": 31.0218, "population": 595061, "timezone": "Africa/Johannesburg"},
  {"name": "Pretoria", "country": "South Africa", "lat": -25.7479, "lng": 28.2293, "population": 741651, "timezone": "Africa/Johannesburg"},
  {"name": "Port Elizabeth", "country": "South Africa", "lat": -33.9608, "lng": 25.6022, "population": 312392, "timezone": "Africa/Johannesburg"},
  {"name": "Bloemfontein", "country": "South Africa", "lat": -29.0852, "lng": 26.1596, "population": 256185, "timezone": "Africa/Johannesburg"},
  {"name": "Lubumbashi", "country": "DR Congo", "lat": -11.6877, "lng": 27.5026, "population": 1786397, "timezone": "Africa/Lubumbashi"},
  {"name": "Mbuji-Mayi", "country": "DR Congo", "lat": -6.136, "lng": 23.5898, "population": 1780000, "timezone": "Africa/Lubumbashi"},
  {"name": "Brazzaville", "country": "Congo", "lat": -4.2634, "lng": 15.2429, "population": 1827000, "timezone": "Africa/Brazzaville"},
  {"name": "Bamenda", "country": "Cameroon", "lat": 5.9631, "lng": 10.1591, "population": 393835, "timezone": "Africa/Douala"},
  {"name": "Douala", "country": "Cameroon", "lat": 4.0511, "lng": 9.7679, "population": 2446945, "timezone": "Africa/Douala"}
] 