[
  {
    "name": "Tokyo",
    "country": "Japan",
    "lat": 35.6895,
    "lng": 139.6917,
    "population": 13929286,
    "timezone": "Asia/Tokyo"
  },
  {
    "name": "Delhi",
    "country": "India",
    "lat": 28.6139,
    "lng": 77.209,
    "population": 30290936,
    "timezone": "Asia/Kolkata"
  },
  {
    "name": "Shanghai",
    "country": "China",
    "lat": 31.2304,
    "lng": 121.4737,
    "population": 27058480,
    "timezone": "Asia/Shanghai"
  },
  {
    "name": "Sao Paulo",
    "country": "Brazil",
    "lat": -23.5505,
    "lng": -46.6333,
    "population": 22429800,
    "timezone": "America/Sao_Paulo"
  },
  {
    "name": "Mexico City",
    "country": "Mexico",
    "lat": 19.4326,
    "lng": -99.1332,
    "population": 22085140,
    "timezone": "America/Mexico_City"
  },
  {
    "name": "Cairo",
    "country": "Egypt",
    "lat": 30.0444,
    "lng": 31.2357,
    "population": 20900604,
    "timezone": "Africa/Cairo"
  },
  {
    "name": "Mumbai",
    "country": "India",
    "lat": 19.076,
    "lng": 72.8777,
    "population": 20411274,
    "timezone": "Asia/Kolkata"
  },
  {
    "name": "Beijing",
    "country": "China",
    "lat": 39.9042,
    "lng": 116.4074,
    "population": 20384000,
    "timezone": "Asia/Shanghai"
  },
  {
    "name": "Dhaka",
    "country": "Bangladesh",
    "lat": 23.8103,
    "lng": 90.4125,
    "population": 20283552,
    "timezone": "Asia/Dhaka"
  },
  {
    "name": "Osaka",
    "country": "Japan",
    "lat": 34.6937,
    "lng": 135.5023,
    "population": 19280876,
    "timezone": "Asia/Tokyo"
  },
  {
    "name": "Karachi",
    "country": "Pakistan",
    "lat": 24.8607,
    "lng": 67.0011,
    "population": 15741406,
    "timezone": "Asia/Karachi"
  },
  {
    "name": "Chongqing",
    "country": "China",
    "lat": 29.4316,
    "lng": 106.9123,
    "population": 15416500,
    "timezone": "Asia/Shanghai"
  },
  {
    "name": "Istanbul",
    "country": "Turkey",
    "lat": 41.0082,
    "lng": 28.9784,
    "population": 15190336,
    "timezone": "Europe/Istanbul"
  },
  {
    "name": "Buenos Aires",
    "country": "Argentina",
    "lat": -34.6118,
    "lng": -58.396,
    "population": 15057000,
    "timezone": "America/Argentina/Buenos_Aires"
  },
  {
    "name": "Kolkata",
    "country": "India",
    "lat": 22.5726,
    "lng": 88.3639,
    "population": 14850000,
    "timezone": "Asia/Kolkata"
  },
  {
    "name": "Lagos",
    "country": "Nigeria",
    "lat": 6.5244,
    "lng": 3.3792,
    "population": 14800000,
    "timezone": "Africa/Lagos"
  },
  {
    "name": "Kinshasa",
    "country": "DR Congo",
    "lat": -4.4419,
    "lng": 15.2663,
    "population": 14750000,
    "timezone": "Africa/Kinshasa"
  },
  {
    "name": "Manila",
    "country": "Philippines",
    "lat": 14.5995,
    "lng": 120.9842,
    "population": 14000000,
    "timezone": "Asia/Manila"
  },
  {
    "name": "Tianjin",
    "country": "China",
    "lat": 39.0842,
    "lng": 117.2009,
    "population": 13860000,
    "timezone": "Asia/Shanghai"
  },
  {
    "name": "Guangzhou",
    "country": "China",
    "lat": 23.1291,
    "lng": 113.2644,
    "population": 13500000,
    "timezone": "Asia/Shanghai"
  },
  {
    "name": "Rio de Janeiro",
    "country": "Brazil",
    "lat": -22.9068,
    "lng": -43.1729,
    "population": 13293000,
    "timezone": "America/Sao_Paulo"
  },
  {
    "name": "Lahore",
    "country": "Pakistan",
    "lat": 31.5204,
    "lng": 74.3587,
    "population": 12870000,
    "timezone": "Asia/Karachi"
  },
  {
    "name": "Bangalore",
    "country": "India",
    "lat": 12.9716,
    "lng": 77.5946,
    "population": 12765000,
    "timezone": "Asia/Kolkata"
  },
  {
    "name": "Moscow",
    "country": "Russia",
    "lat": 55.7558,
    "lng": 37.6173,
    "population": 12506468,
    "timezone": "Europe/Moscow"
  },
  {
    "name": "Shenzhen",
    "country": "China",
    "lat": 22.3193,
    "lng": 114.1694,
    "population": 12500000,
    "timezone": "Asia/Shanghai"
  },
  {
    "name": "Chennai",
    "country": "India",
    "lat": 13.0827,
    "lng": 80.2707,
    "population": 11235000,
    "timezone": "Asia/Kolkata"
  },
  {
    "name": "Bogota",
    "country": "Colombia",
    "lat": 4.711,
    "lng": -74.0721,
    "population": 11000000,
    "timezone": "America/Bogota"
  },
  {
    "name": "Paris",
    "country": "France",
    "lat": 48.8566,
    "lng": 2.3522,
    "population": 11017230,
    "timezone": "Europe/Paris"
  },
  {
    "name": "Jakarta",
    "country": "Indonesia",
    "lat": -6.2088,
    "lng": 106.8456,
    "population": 10562088,
    "timezone": "Asia/Jakarta"
  },
  {
    "name": "Lima",
    "country": "Peru",
    "lat": -12.0464,
    "lng": -77.0428,
    "population": 9562280,
    "timezone": "America/Lima"
  },
  {
    "name": "Bangkok",
    "country": "Thailand",
    "lat": 13.7563,
    "lng": 100.5018,
    "population": 8280925,
    "timezone": "Asia/Bangkok"
  },
  {
    "name": "Seoul",
    "country": "South Korea",
    "lat": 37.5665,
    "lng": 126.978,
    "population": 9733509,
    "timezone": "Asia/Seoul"
  },
  {
    "name": "Nagoya",
    "country": "Japan",
    "lat": 35.1815,
    "lng": 136.9066,
    "population": 9520000,
    "timezone": "Asia/Tokyo"
  },
  {
    "name": "Hyderabad",
    "country": "India",
    "lat": 17.385,
    "lng": 78.4867,
    "population": 9500000,
    "timezone": "Asia/Kolkata"
  },
  {
    "name": "London",
    "country": "United Kingdom",
    "lat": 51.5074,
    "lng": -0.1278,
    "population": 8982000,
    "timezone": "Europe/London"
  },
  {
    "name": "Tehran",
    "country": "Iran",
    "lat": 35.6892,
    "lng": 51.389,
    "population": 9010000,
    "timezone": "Asia/Tehran"
  },
  {
    "name": "Chicago",
    "country": "United States",
    "lat": 41.8781,
    "lng": -87.6298,
    "population": 8964448,
    "timezone": "America/Chicago"
  },
  {
    "name": "Chengdu",
    "country": "China",
    "lat": 30.5728,
    "lng": 104.0668,
    "population": 8900000,
    "timezone": "Asia/Shanghai"
  },
  {
    "name": "Nanjing",
    "country": "China",
    "lat": 32.0603,
    "lng": 118.7969,
    "population": 8500000,
    "timezone": "Asia/Shanghai"
  },
  {
    "name": "Wuhan",
    "country": "China",
    "lat": 30.5928,
    "lng": 114.3055,
    "population": 8500000,
    "timezone": "Asia/Shanghai"
  },
  {
    "name": "Xi'an",
    "country": "China",
    "lat": 34.3416,
    "lng": 108.9398,
    "population": 8500000,
    "timezone": "Asia/Shanghai"
  },
  {
    "name": "Ahmedabad",
    "country": "India",
    "lat": 23.0225,
    "lng": 72.5714,
    "population": 8000000,
    "timezone": "Asia/Kolkata"
  },
  {
    "name": "Kuala Lumpur",
    "country": "Malaysia",
    "lat": 3.139,
    "lng": 101.6869,
    "population": 7900000,
    "timezone": "Asia/Kuala_Lumpur"
  },
  {
    "name": "Hong Kong",
    "country": "China",
    "lat": 22.3193,
    "lng": 114.1694,
    "population": 7507000,
    "timezone": "Asia/Hong_Kong"
  },
  {
    "name": "Dongguan",
    "country": "China",
    "lat": 23.0208,
    "lng": 113.7518,
    "population": 7500000,
    "timezone": "Asia/Shanghai"
  },
  {
    "name": "Foshan",
    "country": "China",
    "lat": 23.0218,
    "lng": 113.1219,
    "population": 7500000,
    "timezone": "Asia/Shanghai"
  },
  {
    "name": "Hangzhou",
    "country": "China",
    "lat": 30.2741,
    "lng": 120.1551,
    "population": 7500000,
    "timezone": "Asia/Shanghai"
  },
  {
    "name": "Shijiazhuang",
    "country": "China",
    "lat": 38.0428,
    "lng": 114.5149,
    "population": 7500000,
    "timezone": "Asia/Shanghai"
  },
  {
    "name": "Suzhou",
    "country": "China",
    "lat": 31.299,
    "lng": 120.5853,
    "population": 7500000,
    "timezone": "Asia/Shanghai"
  },
  {
    "name": "Zhengzhou",
    "country": "China",
    "lat": 34.7472,
    "lng": 113.6253,
    "population": 7500000,
    "timezone": "Asia/Shanghai"
  },
  {
    "name": "Singapore",
    "country": "Singapore",
    "lat": 1.3521,
    "lng": 103.8198,
    "population": 5703600,
    "timezone": "Asia/Singapore"
  },
  {
    "name": "Ho Chi Minh City",
    "country": "Vietnam",
    "lat": 10.8231,
    "lng": 106.6297,
    "population": 9000000,
    "timezone": "Asia/Ho_Chi_Minh"
  },
  {
    "name": "Hanoi",
    "country": "Vietnam",
    "lat": 21.0285,
    "lng": 105.8542,
    "population": 8000000,
    "timezone": "Asia/Ho_Chi_Minh"
  },
  {
    "name": "Yangon",
    "country": "Myanmar",
    "lat": 16.8661,
    "lng": 96.1951,
    "population": 5200000,
    "timezone": "Asia/Yangon"
  },
  {
    "name": "Phnom Penh",
    "country": "Cambodia",
    "lat": 11.5564,
    "lng": 104.9282,
    "population": 2129371,
    "timezone": "Asia/Phnom_Penh"
  },
  {
    "name": "Vientiane",
    "country": "Laos",
    "lat": 17.9757,
    "lng": 102.6331,
    "population": 820940,
    "timezone": "Asia/Vientiane"
  },
  {
    "name": "Ulaanbaatar",
    "country": "Mongolia",
    "lat": 47.8864,
    "lng": 106.9057,
    "population": 1396288,
    "timezone": "Asia/Ulaanbaatar"
  },
  {
    "name": "Pyongyang",
    "country": "North Korea",
    "lat": 39.0392,
    "lng": 125.7625,
    "population": 3222000,
    "timezone": "Asia/Pyongyang"
  },
  {
    "name": "Kathmandu",
    "country": "Nepal",
    "lat": 27.7172,
    "lng": 85.324,
    "population": 1442271,
    "timezone": "Asia/Kathmandu"
  },
  {
    "name": "Thimphu",
    "country": "Bhutan",
    "lat": 27.4716,
    "lng": 89.6386,
    "population": 114551,
    "timezone": "Asia/Thimphu"
  },
  {
    "name": "Dhaka",
    "country": "Bangladesh",
    "lat": 23.8103,
    "lng": 90.4125,
    "population": 20283552,
    "timezone": "Asia/Dhaka"
  },
  {
    "name": "Chittagong",
    "country": "Bangladesh",
    "lat": 22.3419,
    "lng": 91.8132,
    "population": 4000000,
    "timezone": "Asia/Dhaka"
  },
  {
    "name": "Khulna",
    "country": "Bangladesh",
    "lat": 22.8098,
    "lng": 89.5644,
    "population": 1500000,
    "timezone": "Asia/Dhaka"
  },
  {
    "name": "Rajshahi",
    "country": "Bangladesh",
    "lat": 24.3745,
    "lng": 88.6042,
    "population": 700000,
    "timezone": "Asia/Dhaka"
  },
  {
    "name": "Sylhet",
    "country": "Bangladesh",
    "lat": 24.8949,
    "lng": 91.8687,
    "population": 500000,
    "timezone": "Asia/Dhaka"
  },
  {
    "name": "Barisal",
    "country": "Bangladesh",
    "lat": 22.701,
    "lng": 90.3535,
    "population": 400000,
    "timezone": "Asia/Dhaka"
  },
  {
    "name": "Rangpur",
    "country": "Bangladesh",
    "lat": 25.7466,
    "lng": 89.2517,
    "population": 300000,
    "timezone": "Asia/Dhaka"
  },
  {
    "name": "Mymensingh",
    "country": "Bangladesh",
    "lat": 24.7471,
    "lng": 90.4203,
    "population": 250000,
    "timezone": "Asia/Dhaka"
  },
  {
    "name": "Comilla",
    "country": "Bangladesh",
    "lat": 23.4607,
    "lng": 91.1809,
    "population": 300000,
    "timezone": "Asia/Dhaka"
  },
  {
    "name": "Narayanganj",
    "country": "Bangladesh",
    "lat": 23.6237,
    "lng": 90.5,
    "population": 200000,
    "timezone": "Asia/Dhaka"
  },
  {
    "name": "Gazipur",
    "country": "Bangladesh",
    "lat": 24.0023,
    "lng": 90.4264,
    "population": 150000,
    "timezone": "Asia/Dhaka"
  },
  {
    "name": "Tongi",
    "country": "Bangladesh",
    "lat": 23.8915,
    "lng": 90.4023,
    "population": 100000,
    "timezone": "Asia/Dhaka"
  },
  {
    "name": "Bogra",
    "country": "Bangladesh",
    "lat": 24.851,
    "lng": 89.3697,
    "population": 400000,
    "timezone": "Asia/Dhaka"
  },
  {
    "name": "Kushtia",
    "country": "Bangladesh",
    "lat": 23.9083,
    "lng": 89.1225,
    "population": 100000,
    "timezone": "Asia/Dhaka"
  },
  {
    "name": "Jessore",
    "country": "Bangladesh",
    "lat": 23.1707,
    "lng": 89.2097,
    "population": 200000,
    "timezone": "Asia/Dhaka"
  },
  {
    "name": "Dinajpur",
    "country": "Bangladesh",
    "lat": 25.6279,
    "lng": 88.6339,
    "population": 200000,
    "timezone": "Asia/Dhaka"
  },
  {
    "name": "Tangail",
    "country": "Bangladesh",
    "lat": 24.2513,
    "lng": 89.9167,
    "population": 150000,
    "timezone": "Asia/Dhaka"
  },
  {
    "name": "Pabna",
    "country": "Bangladesh",
    "lat": 24.0064,
    "lng": 89.2372,
    "population": 150000,
    "timezone": "Asia/Dhaka"
  },
  {
    "name": "Saidpur",
    "country": "Bangladesh",
    "lat": 25.7767,
    "lng": 88.8917,
    "population": 100000,
    "timezone": "Asia/Dhaka"
  },
  {
    "name": "Narsingdi",
    "country": "Bangladesh",
    "lat": 23.9221,
    "lng": 90.7176,
    "population": 100000,
    "timezone": "Asia/Dhaka"
  },
  {
    "name": "Sirajganj",
    "country": "Bangladesh",
    "lat": 24.4539,
    "lng": 89.7108,
    "population": 100000,
    "timezone": "Asia/Dhaka"
  },
  {
    "name": "Jamalpur",
    "country": "Bangladesh",
    "lat": 24.9197,
    "lng": 89.9481,
    "population": 100000,
    "timezone": "Asia/Dhaka"
  },
  {
    "name": "Netrokona",
    "country": "Bangladesh",
    "lat": 24.8833,
    "lng": 90.7167,
    "population": 100000,
    "timezone": "Asia/Dhaka"
  },
  {
    "name": "Sherpur",
    "country": "Bangladesh",
    "lat": 25.0167,
    "lng": 90.0167,
    "population": 100000,
    "timezone": "Asia/Dhaka"
  },
  {
    "name": "Moulvibazar",
    "country": "Bangladesh",
    "lat": 24.4833,
    "lng": 91.7833,
    "population": 100000,
    "timezone": "Asia/Dhaka"
  },
  {
    "name": "Habiganj",
    "country": "Bangladesh",
    "lat": 24.3833,
    "lng": 91.4167,
    "population": 100000,
    "timezone": "Asia/Dhaka"
  },
  {
    "name": "Sunamganj",
    "country": "Bangladesh",
    "lat": 25.0667,
    "lng": 91.4,
    "population": 100000,
    "timezone": "Asia/Dhaka"
  },
  {
    "name": "Brahmanbaria",
    "country": "Bangladesh",
    "lat": 23.9667,
    "lng": 91.1,
    "population": 100000,
    "timezone": "Asia/Dhaka"
  },
  {
    "name": "Comilla",
    "country": "Bangladesh",
    "lat": 23.4607,
    "lng": 91.1809,
    "population": 300000,
    "timezone": "Asia/Dhaka"
  },
  {
    "name": "Chandpur",
    "country": "Bangladesh",
    "lat": 23.2333,
    "lng": 90.65,
    "population": 100000,
    "timezone": "Asia/Dhaka"
  },
  {
    "name": "Lakshmipur",
    "country": "Bangladesh",
    "lat": 22.95,
    "lng": 90.8333,
    "population": 100000,
    "timezone": "Asia/Dhaka"
  },
  {
    "name": "Noakhali",
    "country": "Bangladesh",
    "lat": 22.8167,
    "lng": 91.1,
    "population": 100000,
    "timezone": "Asia/Dhaka"
  },
  {
    "name": "Feni",
    "country": "Bangladesh",
    "lat": 23.0167,
    "lng": 91.4,
    "population": 100000,
    "timezone": "Asia/Dhaka"
  },
  {
    "name": "Chittagong",
    "country": "Bangladesh",
    "lat": 22.3419,
    "lng": 91.8132,
    "population": 4000000,
    "timezone": "Asia/Dhaka"
  },
  {
    "name": "Cox's Bazar",
    "country": "Bangladesh",
    "lat": 21.4333,
    "lng": 92.0167,
    "population": 100000,
    "timezone": "Asia/Dhaka"
  },
  {
    "name": "Bandarban",
    "country": "Bangladesh",
    "lat": 22.2,
    "lng": 92.2167,
    "population": 100000,
    "timezone": "Asia/Dhaka"
  },
  {
    "name": "Rangamati",
    "country": "Bangladesh",
    "lat": 22.6333,
    "lng": 92.2,
    "population": 100000,
    "timezone": "Asia/Dhaka"
  },
  {
    "name": "Khagrachari",
    "country": "Bangladesh",
    "lat": 23.1167,
    "lng": 91.9667,
    "population": 100000,
    "timezone": "Asia/Dhaka"
  },
  {
    "name": "Surabaya",
    "country": "Indonesia",
    "lat": -7.2575,
    "lng": 112.7521,
    "population": 2950000,
    "timezone": "Asia/Jakarta"
  },
  {
    "name": "Pune",
    "country": "India",
    "lat": 18.5204,
    "lng": 73.8567,
    "population": 3124458,
    "timezone": "Asia/Kolkata"
  },
  {
    "name": "Nagoya",
    "country": "Japan",
    "lat": 35.1815,
    "lng": 136.9066,
    "population": 2295638,
    "timezone": "Asia/Tokyo"
  },
  {
    "name": "Busan",
    "country": "South Korea",
    "lat": 35.1796,
    "lng": 129.0756,
    "population": 3448737,
    "timezone": "Asia/Seoul"
  },
  {
    "name": "Yokohama",
    "country": "Japan",
    "lat": 35.4437,
    "lng": 139.638,
    "population": 3726167,
    "timezone": "Asia/Tokyo"
  },
  {
    "name": "Chengdu",
    "country": "China",
    "lat": 30.5728,
    "lng": 104.0668,
    "population": 16330000,
    "timezone": "Asia/Shanghai"
  },
  {
    "name": "Wuhan",
    "country": "China",
    "lat": 30.5928,
    "lng": 114.3055,
    "population": 11081000,
    "timezone": "Asia/Shanghai"
  },
  {
    "name": "Ahmedabad",
    "country": "India",
    "lat": 23.0225,
    "lng": 72.5714,
    "population": 8230000,
    "timezone": "Asia/Kolkata"
  },
  {
    "name": "Bangkok",
    "country": "Thailand",
    "lat": 13.7563,
    "lng": 100.5018,
    "population": 8281000,
    "timezone": "Asia/Bangkok"
  },
  {
    "name": "Kuala Lumpur",
    "country": "Malaysia",
    "lat": 3.139,
    "lng": 101.6869,
    "population": 1800000,
    "timezone": "Asia/Kuala_Lumpur"
  },
  {
    "name": "Hanoi",
    "country": "Vietnam",
    "lat": 21.0285,
    "lng": 105.8542,
    "population": 8000000,
    "timezone": "Asia/Ho_Chi_Minh"
  },
  {
    "name": "Quezon City",
    "country": "Philippines",
    "lat": 14.676,
    "lng": 121.0437,
    "population": 2936116,
    "timezone": "Asia/Manila"
  },
  {
    "name": "Taichung",
    "country": "Taiwan",
    "lat": 24.1477,
    "lng": 120.6736,
    "population": 2800000,
    "timezone": "Asia/Taipei"
  },
  {
    "name": "Bangalore",
    "country": "India",
    "lat": 12.9716,
    "lng": 77.5946,
    "population": 8443675,
    "timezone": "Asia/Kolkata"
  },
  {
    "name": "Tashkent",
    "country": "Uzbekistan",
    "lat": 41.2995,
    "lng": 69.2401,
    "population": 2500000,
    "timezone": "Asia/Tashkent"
  },
  {
    "name": "Ulaanbaatar",
    "country": "Mongolia",
    "lat": 47.8864,
    "lng": 106.9057,
    "population": 1396288,
    "timezone": "Asia/Ulaanbaatar"
  },
  {
    "name": "Sapporo",
    "country": "Japan",
    "lat": 43.0621,
    "lng": 141.3544,
    "population": 1952356,
    "timezone": "Asia/Tokyo"
  },
  {
    "name": "Fukuoka",
    "country": "Japan",
    "lat": 33.5904,
    "lng": 130.4017,
    "population": 1617000,
    "timezone": "Asia/Tokyo"
  },
  {
    "name": "Kaohsiung",
    "country": "Taiwan",
    "lat": 22.6273,
    "lng": 120.3014,
    "population": 2779000,
    "timezone": "Asia/Taipei"
  },
  {
    "name": "Islamabad",
    "country": "Pakistan",
    "lat": 33.6844,
    "lng": 73.0479,
    "population": 1095064,
    "timezone": "Asia/Karachi"
  },
  {"name": "Hyderabad", "country": "India", "lat": 17.385, "lng": 78.4867, "population": 9500000, "timezone": "Asia/Kolkata"},
  {"name": "Chongqing", "country": "China", "lat": 29.4316, "lng": 106.9123, "population": 15416500, "timezone": "Asia/Shanghai"},
  {"name": "Nanjing", "country": "China", "lat": 32.0603, "lng": 118.7969, "population": 8500000, "timezone": "Asia/Shanghai"},
  {"name": "Shenyang", "country": "China", "lat": 41.8057, "lng": 123.4315, "population": 8290000, "timezone": "Asia/Shanghai"},
  {"name": "Harbin", "country": "China", "lat": 45.8038, "lng": 126.5349, "population": 10636000, "timezone": "Asia/Shanghai"},
  {"name": "Suzhou", "country": "China", "lat": 31.2989, "lng": 120.5853, "population": 10700000, "timezone": "Asia/Shanghai"},
  {"name": "Qingdao", "country": "China", "lat": 36.0671, "lng": 120.3826, "population": 9390000, "timezone": "Asia/Shanghai"},
  {"name": "Dalian", "country": "China", "lat": 38.914, "lng": 121.6147, "population": 6900000, "timezone": "Asia/Shanghai"},
  {"name": "Foshan", "country": "China", "lat": 23.0215, "lng": 113.1214, "population": 9400000, "timezone": "Asia/Shanghai"},
  {"name": "Changsha", "country": "China", "lat": 28.2282, "lng": 112.9388, "population": 8000000, "timezone": "Asia/Shanghai"},
  {"name": "Urumqi", "country": "China", "lat": 43.8256, "lng": 87.6168, "population": 3500000, "timezone": "Asia/Urumqi"},
  {"name": "Patna", "country": "India", "lat": 25.5941, "lng": 85.1376, "population": 1683200, "timezone": "Asia/Kolkata"},
  {"name": "Kanpur", "country": "India", "lat": 26.4499, "lng": 80.3319, "population": 2730000, "timezone": "Asia/Kolkata"},
  {"name": "Nagpur", "country": "India", "lat": 21.1458, "lng": 79.0882, "population": 2405665, "timezone": "Asia/Kolkata"},
  {"name": "Lucknow", "country": "India", "lat": 26.8467, "lng": 80.9462, "population": 3382000, "timezone": "Asia/Kolkata"},
  {"name": "Bhopal", "country": "India", "lat": 23.2599, "lng": 77.4126, "population": 1798218, "timezone": "Asia/Kolkata"},
  {"name": "Vientiane", "country": "Laos", "lat": 17.9757, "lng": 102.6331, "population": 820940, "timezone": "Asia/Vientiane"},
  {"name": "Phnom Penh", "country": "Cambodia", "lat": 11.5564, "lng": 104.9282, "population": 2129371, "timezone": "Asia/Phnom_Penh"},
  {"name": "Yangon", "country": "Myanmar", "lat": 16.8409, "lng": 96.1735, "population": 5214000, "timezone": "Asia/Yangon"},
  {"name": "Colombo", "country": "Sri Lanka", "lat": 6.9271, "lng": 79.8612, "population": 752993, "timezone": "Asia/Colombo"},
  {"name": "Fuzhou", "country": "China", "lat": 26.0745, "lng": 119.2965, "population": 7660000, "timezone": "Asia/Shanghai"},
  {"name": "Xiamen", "country": "China", "lat": 24.4798, "lng": 118.0894, "population": 4110000, "timezone": "Asia/Shanghai"},
  {"name": "Jinan", "country": "China", "lat": 36.6512, "lng": 117.1201, "population": 8700000, "timezone": "Asia/Shanghai"},
  {"name": "Zhengzhou", "country": "China", "lat": 34.7472, "lng": 113.6253, "population": 12600000, "timezone": "Asia/Shanghai"},
  {"name": "Shijiazhuang", "country": "China", "lat": 38.0428, "lng": 114.5149, "population": 11000000, "timezone": "Asia/Shanghai"},
  {"name": "Kunming", "country": "China", "lat": 25.0389, "lng": 102.7183, "population": 6850000, "timezone": "Asia/Shanghai"},
  {"name": "Nanchang", "country": "China", "lat": 28.682, "lng": 115.8579, "population": 5600000, "timezone": "Asia/Shanghai"},
  {"name": "Hefei", "country": "China", "lat": 31.8206, "lng": 117.2272, "population": 9370000, "timezone": "Asia/Shanghai"},
  {"name": "Taiyuan", "country": "China", "lat": 37.8706, "lng": 112.5489, "population": 5300000, "timezone": "Asia/Shanghai"},
  {"name": "Lanzhou", "country": "China", "lat": 36.0611, "lng": 103.8343, "population": 3600000, "timezone": "Asia/Shanghai"},
  {"name": "Guiyang", "country": "China", "lat": 26.647, "lng": 106.6302, "population": 4700000, "timezone": "Asia/Shanghai"},
  {"name": "Ningbo", "country": "China", "lat": 29.8683, "lng": 121.544, "population": 8540000, "timezone": "Asia/Shanghai"},
  {"name": "Wenzhou", "country": "China", "lat": 27.9939, "lng": 120.6994, "population": 9250000, "timezone": "Asia/Shanghai"},
  {"name": "Shaoxing", "country": "China", "lat": 30.0297, "lng": 120.5853, "population": 5030000, "timezone": "Asia/Shanghai"},
  {"name": "Jinhua", "country": "China", "lat": 29.0783, "lng": 119.6474, "population": 5620000, "timezone": "Asia/Shanghai"},
  {"name": "Zhuhai", "country": "China", "lat": 22.2707, "lng": 113.5767, "population": 1890000, "timezone": "Asia/Shanghai"},
  {"name": "Zhongshan", "country": "China", "lat": 22.5176, "lng": 113.3928, "population": 4410000, "timezone": "Asia/Shanghai"},
  {"name": "Huizhou", "country": "China", "lat": 23.1116, "lng": 114.4162, "population": 6000000, "timezone": "Asia/Shanghai"},
  {"name": "Jiangmen", "country": "China", "lat": 22.5787, "lng": 113.0819, "population": 4500000, "timezone": "Asia/Shanghai"},
  {"name": "Zhaoqing", "country": "China", "lat": 23.0472, "lng": 112.4651, "population": 4200000, "timezone": "Asia/Shanghai"},
  {"name": "Surat", "country": "India", "lat": 21.1702, "lng": 72.8311, "population": 4462000, "timezone": "Asia/Kolkata"},
  {"name": "Jaipur", "country": "India", "lat": 26.9124, "lng": 75.7873, "population": 3073350, "timezone": "Asia/Kolkata"},
  {"name": "Indore", "country": "India", "lat": 22.7196, "lng": 75.8577, "population": 1994391, "timezone": "Asia/Kolkata"},
  {"name": "Bhopal", "country": "India", "lat": 23.2599, "lng": 77.4126, "population": 1798218, "timezone": "Asia/Kolkata"},
  {"name": "Ludhiana", "country": "India", "lat": 30.901, "lng": 75.8573, "population": 1618000, "timezone": "Asia/Kolkata"},
  {"name": "Agra", "country": "India", "lat": 27.1767, "lng": 78.0081, "population": 1585704, "timezone": "Asia/Kolkata"},
  {"name": "Vadodara", "country": "India", "lat": 22.3072, "lng": 73.1812, "population": 2065771, "timezone": "Asia/Kolkata"},
  {"name": "Gorakhpur", "country": "India", "lat": 26.7606, "lng": 83.3732, "population": 673446, "timezone": "Asia/Kolkata"},
  {"name": "Meerut", "country": "India", "lat": 28.9845, "lng": 77.7064, "population": 1305429, "timezone": "Asia/Kolkata"},
  {"name": "Rajkot", "country": "India", "lat": 22.3039, "lng": 70.8022, "population": 1286678, "timezone": "Asia/Kolkata"},
  {"name": "Kota", "country": "India", "lat": 25.2138, "lng": 75.8648, "population": 1001694, "timezone": "Asia/Kolkata"},
  {"name": "Jabalpur", "country": "India", "lat": 23.1815, "lng": 79.9864, "population": 1267564, "timezone": "Asia/Kolkata"},
  {"name": "Gwalior", "country": "India", "lat": 26.2183, "lng": 78.1828, "population": 1101981, "timezone": "Asia/Kolkata"},
  {"name": "Vijayawada", "country": "India", "lat": 16.5062, "lng": 80.648, "population": 1034358, "timezone": "Asia/Kolkata"},
  {"name": "Jodhpur", "country": "India", "lat": 26.2389, "lng": 73.0243, "population": 1033756, "timezone": "Asia/Kolkata"},
  {"name": "Madurai", "country": "India", "lat": 9.9252, "lng": 78.1198, "population": 1017865, "timezone": "Asia/Kolkata"},
  {"name": "Raipur", "country": "India", "lat": 21.2514, "lng": 81.6296, "population": 1010087, "timezone": "Asia/Kolkata"},
  {"name": "Kota Kinabalu", "country": "Malaysia", "lat": 5.9804, "lng": 116.0735, "population": 452058, "timezone": "Asia/Kuching"},
  {"name": "Kuching", "country": "Malaysia", "lat": 1.5497, "lng": 110.3372, "population": 325132, "timezone": "Asia/Kuching"},
  {"name": "Ipoh", "country": "Malaysia", "lat": 4.5973, "lng": 101.0901, "population": 737861, "timezone": "Asia/Kuala_Lumpur"},
  {"name": "Johor Bahru", "country": "Malaysia", "lat": 1.4927, "lng": 103.7414, "population": 497067, "timezone": "Asia/Kuala_Lumpur"},
  {"name": "Malacca", "country": "Malaysia", "lat": 2.1896, "lng": 102.2501, "population": 455300, "timezone": "Asia/Kuala_Lumpur"},
  {"name": "Alor Setar", "country": "Malaysia", "lat": 6.1184, "lng": 100.3685, "population": 217368, "timezone": "Asia/Kuala_Lumpur"},
  {"name": "Miri", "country": "Malaysia", "lat": 4.3995, "lng": 113.9914, "population": 234541, "timezone": "Asia/Kuching"},
  {"name": "Sibu", "country": "Malaysia", "lat": 2.2876, "lng": 111.8303, "population": 162676, "timezone": "Asia/Kuching"},
  {"name": "Sandakan", "country": "Malaysia", "lat": 5.8394, "lng": 118.1171, "population": 157330, "timezone": "Asia/Kuching"},
  {"name": "Tawau", "country": "Malaysia", "lat": 4.2447, "lng": 117.8912, "population": 113809, "timezone": "Asia/Kuching"},
  {"name": "Lahad Datu", "country": "Malaysia", "lat": 5.0328, "lng": 118.3236, "population": 118000, "timezone": "Asia/Kuching"}
] 